%time,field.header.seq,field.header.stamp,field.header.frame_id,field.latitude,field.longitude,field.altitude,field.utm_easting,field.utm_northing,field.zone,field.letter
1580247281683268875,1,1580247281679235935,gps,42.3403186667,-71.08512,-24.8,328234,4689668,19,T
1580247282683681458,2,1580247282679011106,gps,42.3403153333,-71.0851166667,-24.2,328235,4689667,19,T
1580247283681917935,3,1580247283677798032,gps,42.3403123333,-71.085114,-24.0,328235,4689667,19,T
1580247284678209255,4,1580247284677356004,gps,42.3403138333,-71.0851153333,-23.7,328235,4689667,19,T
1580247285680656974,5,1580247285676559925,gps,42.3403093333,-71.0851126667,-23.5,328235,4689667,19,T
1580247286680473185,6,1580247286676511049,gps,42.3403083333,-71.0851171667,-22.7,328235,4689666,19,T
1580247287685125058,7,1580247287680752992,gps,42.3403093333,-71.0851251667,-22.4,328234,4689667,19,T
1580247288682902621,8,1580247288679028987,gps,42.3403135,-71.0851391667,-24.5,328233,4689667,19,T
1580247289681669207,9,1580247289677815914,gps,42.3403131667,-71.0851518333,-25.0,328232,4689667,19,T
1580247290682378119,10,1580247290678334951,gps,42.3403065,-71.0851581667,-24.6,328231,4689666,19,T
1580247291682001623,11,1580247291678164005,gps,42.3403155,-71.0851868333,-25.4,328229,4689667,19,T
1580247292682718014,12,1580247292678915023,gps,42.3403106667,-71.0851945,-25.8,328228,4689667,19,T
1580247293681018721,13,1580247293677257061,gps,42.340308,-71.0852016667,-26.2,328228,4689667,19,T
1580247294684501584,14,1580247294680346965,gps,42.3402946667,-71.085202,-25.1,328228,4689665,19,T
1580247295685364903,15,1580247295681462049,gps,42.3402796667,-71.0851995,-23.8,328228,4689663,19,T
1580247296683590867,16,1580247296679847955,gps,42.3402731667,-71.0852075,-23.1,328227,4689663,19,T
1580247297675738736,17,1580247297671808004,gps,42.3402726667,-71.085213,-23.2,328227,4689663,19,T
1580247298673360440,18,1580247298672359943,gps,42.3402663333,-71.0852211667,-22.6,328226,4689662,19,T
1580247299698906081,19,1580247299694626092,gps,42.3402603333,-71.0852308333,-21.8,328225,4689661,19,T
1580247300687870073,20,1580247300684017896,gps,42.3402533333,-71.0852401667,-21.8,328224,4689661,19,T
1580247301686822936,21,1580247301682270050,gps,42.3402441667,-71.0852511667,-21.5,328223,4689660,19,T
1580247302683427883,22,1580247302679506063,gps,42.340232,-71.0852566667,-21.1,328223,4689658,19,T
1580247303683251098,23,1580247303679091930,gps,42.3402265,-71.085268,-21.3,328222,4689658,19,T
1580247304683104804,24,1580247304679094076,gps,42.3402151667,-71.0852746667,-20.8,328221,4689656,19,T
1580247305685175316,25,1580247305681163072,gps,42.3402058333,-71.0852818333,-20.3,328221,4689655,19,T
1580247306684418294,26,1580247306680151939,gps,42.3401943333,-71.0852898333,-19.1,328220,4689654,19,T
1580247307685560463,27,1580247307681365966,gps,42.340191,-71.0853008333,-19.1,328219,4689654,19,T
1580247308683806688,28,1580247308679934978,gps,42.3401818333,-71.0853085,-18.5,328219,4689653,19,T
1580247309684845872,29,1580247309680986881,gps,42.3401708333,-71.085316,-17.5,328218,4689652,19,T
1580247310685040814,30,1580247310681112051,gps,42.3401651667,-71.0853271667,-16.6,328217,4689651,19,T
1580247311684028166,31,1580247311679992914,gps,42.3401558333,-71.085339,-15.6,328216,4689650,19,T
1580247312685261603,32,1580247312681051969,gps,42.3401521667,-71.0853625,-13.3,328214,4689650,19,T
1580247313683916194,33,1580247313680093050,gps,42.3401413333,-71.085378,-11.7,328213,4689648,19,T
1580247314685007755,34,1580247314681039094,gps,42.340131,-71.0853921667,-10.3,328211,4689647,19,T
1580247315681034133,35,1580247315676987886,gps,42.3401198333,-71.085406,-9.8,328210,4689646,19,T
1580247316684453436,36,1580247316680452108,gps,42.3401098333,-71.0854195,-9.3,328209,4689645,19,T
1580247317683743457,37,1580247317679152011,gps,42.3401018333,-71.0854341667,-8.3,328208,4689644,19,T
1580247318683495898,38,1580247318679455995,gps,42.3400953333,-71.0854531667,-6.6,328206,4689644,19,T
1580247319690026697,39,1580247319685947895,gps,42.3400861667,-71.0854595,-6.7,328206,4689642,19,T
1580247320685970722,40,1580247320682190895,gps,42.3400776667,-71.085472,-6.0,328205,4689642,19,T
1580247321685621140,41,1580247321681433916,gps,42.340071,-71.0854833333,-6.0,328204,4689641,19,T
1580247322688744764,42,1580247322684585094,gps,42.3400615,-71.0854946667,-5.7,328203,4689640,19,T
1580247323688876672,43,1580247323684860944,gps,42.3400518333,-71.0855018333,-6.3,328202,4689639,19,T
1580247324678700009,44,1580247324676918029,gps,42.3400426667,-71.0855135,-5.8,328201,4689638,19,T
1580247325683350387,45,1580247325679246902,gps,42.3400271667,-71.0855198333,-5.2,328201,4689636,19,T
1580247326682921781,46,1580247326678709983,gps,42.340017,-71.08553,-5.4,328200,4689635,19,T
1580247327684493911,47,1580247327680592060,gps,42.3400098333,-71.0855373333,-5.9,328199,4689634,19,T
1580247328683737939,48,1580247328679723024,gps,42.3400016667,-71.0855483333,-6.2,328198,4689633,19,T
1580247329685651841,49,1580247329681616067,gps,42.3399936667,-71.0855575,-6.7,328197,4689632,19,T
1580247330687360179,50,1580247330683167934,gps,42.3399848333,-71.0855576667,-8.6,328197,4689631,19,T
1580247331686916228,51,1580247331683109998,gps,42.3399773333,-71.0855636667,-9.0,328197,4689631,19,T
1580247332688833549,52,1580247332684886932,gps,42.339969,-71.0855741667,-9.2,328196,4689630,19,T
1580247333684256558,53,1580247333680366039,gps,42.3399616667,-71.0855831667,-9.1,328195,4689629,19,T
1580247334679723512,54,1580247334677613019,gps,42.3399565,-71.0855908333,-9.5,328195,4689628,19,T
1580247335685251674,55,1580247335681457042,gps,42.3399455,-71.0855943333,-9.7,328194,4689627,19,T
1580247336686535799,56,1580247336682585954,gps,42.3399356667,-71.0856006667,-9.6,328194,4689626,19,T
1580247337682354344,57,1580247337678314924,gps,42.3399261667,-71.085607,-9.9,328193,4689625,19,T
1580247338686021963,58,1580247338681958913,gps,42.3399151667,-71.0856123333,-10.0,328193,4689624,19,T
1580247339686124658,59,1580247339682096004,gps,42.3399058333,-71.0856175,-10.7,328192,4689623,19,T
1580247340684979710,60,1580247340680839061,gps,42.339899,-71.0856268333,-11.5,328192,4689622,19,T
1580247341686406739,61,1580247341682441949,gps,42.3398916667,-71.0856361667,-11.4,328191,4689621,19,T
1580247342687871130,62,1580247342683969974,gps,42.3398841667,-71.0856443333,-11.8,328190,4689620,19,T
1580247343684158373,63,1580247343680349111,gps,42.339876,-71.0856506667,-11.9,328189,4689620,19,T
1580247344683584065,64,1580247344679203987,gps,42.3398665,-71.0856591667,-12.4,328189,4689619,19,T
1580247345685651730,65,1580247345681562900,gps,42.3398568333,-71.0856733333,-11.2,328188,4689617,19,T
1580247346687338098,66,1580247346683188915,gps,42.3398473333,-71.0856801667,-11.8,328187,4689616,19,T
1580247347686396622,67,1580247347681936979,gps,42.3398385,-71.0856885,-12.1,328186,4689615,19,T
1580247348690270647,68,1580247348686161041,gps,42.339828,-71.0856981667,-12.5,328185,4689614,19,T
1580247349687943419,69,1580247349683881998,gps,42.3398188333,-71.0857075,-12.9,328185,4689613,19,T
1580247350688222822,70,1580247350683789014,gps,42.3398128333,-71.0857146667,-13.5,328184,4689613,19,T
1580247351682371014,71,1580247351681411981,gps,42.3398053333,-71.0857223333,-13.4,328183,4689612,19,T
1580247352686905719,72,1580247352682526111,gps,42.3397973333,-71.0857303333,-13.7,328183,4689611,19,T
1580247353682898354,73,1580247353679091930,gps,42.3397905,-71.0857405,-13.6,328182,4689610,19,T
1580247354689140429,74,1580247354683698892,gps,42.3397768333,-71.0857446667,-13.4,328181,4689609,19,T
1580247355682814779,75,1580247355678620100,gps,42.3397646667,-71.0857413333,-15.3,328182,4689607,19,T
1580247356683451344,76,1580247356679586887,gps,42.3397545,-71.085746,-16.2,328181,4689606,19,T
1580247357684298418,77,1580247357680291891,gps,42.3397438333,-71.085752,-16.9,328181,4689605,19,T
1580247358683405211,78,1580247358679619073,gps,42.3397361667,-71.0857588333,-17.0,328180,4689604,19,T
1580247359704048898,79,1580247359700102090,gps,42.33973,-71.0857653333,-17.4,328180,4689604,19,T
1580247360682907954,80,1580247360678616046,gps,42.3397243333,-71.0857741667,-17.8,328179,4689603,19,T
1580247361683928890,81,1580247361679672956,gps,42.3397186667,-71.0857831667,-18.1,328178,4689602,19,T
1580247362682727743,82,1580247362678765058,gps,42.3397123333,-71.085795,-17.5,328177,4689602,19,T
1580247363685000392,83,1580247363681082010,gps,42.339713,-71.0858021667,-17.6,328177,4689602,19,T
1580247364686745494,84,1580247364682646036,gps,42.3397075,-71.085809,-18.1,328176,4689601,19,T
1580247365680304840,85,1580247365679282903,gps,42.3397005,-71.085821,-18.1,328175,4689600,19,T
1580247366686599778,86,1580247366681087017,gps,42.3396943333,-71.0858353333,-17.1,328174,4689600,19,T
1580247367684290346,87,1580247367680126905,gps,42.3396826667,-71.0858446667,-15.1,328173,4689598,19,T
1580247368685801182,88,1580247368681844949,gps,42.3396725,-71.0858548333,-14.6,328172,4689597,19,T
1580247369684224561,89,1580247369679735898,gps,42.3396643333,-71.085866,-15.2,328171,4689596,19,T
1580247370685512528,90,1580247370681516885,gps,42.3396525,-71.0858668333,-15.0,328171,4689595,19,T
1580247371681359776,91,1580247371680399894,gps,42.339643,-71.0858755,-14.4,328170,4689594,19,T
1580247372683815610,92,1580247372679745912,gps,42.3396365,-71.085889,-14.9,328169,4689593,19,T
1580247373680181418,93,1580247373676147937,gps,42.3396296667,-71.0858995,-15.6,328168,4689593,19,T
1580247374684919968,94,1580247374680903911,gps,42.339624,-71.0859146667,-15.3,328167,4689592,19,T
1580247375683558506,95,1580247375679559946,gps,42.3396185,-71.0859286667,-14.5,328166,4689592,19,T
1580247376685342140,96,1580247376681216001,gps,42.3396111667,-71.0859455,-13.5,328164,4689591,19,T
1580247377684078124,97,1580247377680036067,gps,42.3396036667,-71.0859576667,-13.1,328163,4689590,19,T
1580247378683927020,98,1580247378679969072,gps,42.3395978333,-71.0859758333,-13.4,328162,4689589,19,T
1580247379685694524,99,1580247379681690931,gps,42.3395896667,-71.085988,-13.6,328161,4689588,19,T
1580247380685610331,100,1580247380681444883,gps,42.33958,-71.0859986667,-13.6,328160,4689587,19,T
1580247381684102376,101,1580247381680193901,gps,42.3395708333,-71.0860101667,-14.1,328159,4689586,19,T
1580247382684117163,102,1580247382680269956,gps,42.3395608333,-71.086023,-14.2,328158,4689585,19,T
1580247383686475591,103,1580247383682470083,gps,42.3395546667,-71.0860353333,-14.7,328157,4689585,19,T
1580247384681987236,104,1580247384678138971,gps,42.3395491667,-71.086048,-15.4,328156,4689584,19,T
1580247385683988590,105,1580247385680253028,gps,42.3395413333,-71.0860646667,-14.2,328154,4689583,19,T
1580247386685675322,106,1580247386681668043,gps,42.3395318333,-71.0860751667,-14.6,328154,4689582,19,T
1580247387683261509,107,1580247387679462909,gps,42.3395226667,-71.0860868333,-14.1,328153,4689581,19,T
1580247388683883941,108,1580247388680105924,gps,42.3395163333,-71.0860981667,-14.5,328152,4689581,19,T
1580247389685809800,109,1580247389681761026,gps,42.3395078333,-71.0861106667,-14.2,328151,4689580,19,T
1580247390686283998,110,1580247390682084083,gps,42.3394975,-71.0861205,-13.8,328150,4689578,19,T
1580247391684662868,111,1580247391680707931,gps,42.3394866667,-71.0861321667,-13.3,328149,4689577,19,T
1580247392686340879,112,1580247392682439088,gps,42.3394708333,-71.0861391667,-13.4,328148,4689576,19,T
1580247393688889285,113,1580247393681898117,gps,42.3394623333,-71.0861493333,-13.8,328147,4689575,19,T
1580247394685632779,114,1580247394681565999,gps,42.3394448333,-71.0861553333,-12.9,328147,4689573,19,T
1580247395683025321,115,1580247395678973913,gps,42.339432,-71.086163,-14.1,328146,4689571,19,T
1580247396687881456,116,1580247396684082031,gps,42.3394206667,-71.0861725,-15.2,328145,4689570,19,T
1580247397683748578,117,1580247397679936885,gps,42.3394128333,-71.0861805,-16.1,328145,4689569,19,T
1580247398684525013,118,1580247398680484056,gps,42.3393968333,-71.0861805,-16.6,328145,4689567,19,T
1580247399684172502,119,1580247399680109977,gps,42.3393826667,-71.086184,-16.7,328144,4689566,19,T
1580247400684826051,120,1580247400680825948,gps,42.3393716667,-71.0861981667,-17.2,328143,4689565,19,T
1580247401684988878,121,1580247401681019067,gps,42.3393618333,-71.0862108333,-17.0,328142,4689564,19,T
1580247402682949240,122,1580247402679136991,gps,42.3393523333,-71.0862233333,-16.9,328141,4689563,19,T
1580247403685638713,123,1580247403681690931,gps,42.3393421667,-71.086229,-16.8,328140,4689561,19,T
1580247404685336541,124,1580247404681338071,gps,42.339333,-71.0862388333,-16.9,328140,4689560,19,T
1580247405686631744,125,1580247405682725906,gps,42.3393223333,-71.0862486667,-15.7,328139,4689559,19,T
1580247406685030185,126,1580247406681121110,gps,42.3393136667,-71.0862608333,-16.1,328138,4689558,19,T
1580247407688021300,127,1580247407684066057,gps,42.3392981667,-71.086267,-16.0,328137,4689557,19,T
1580247408685540742,128,1580247408681078910,gps,42.339287,-71.0862751667,-16.4,328136,4689555,19,T
1580247409684237791,129,1580247409680011987,gps,42.33928,-71.0862811667,-17.2,328136,4689555,19,T
1580247410686118893,130,1580247410681896924,gps,42.3392725,-71.0862876667,-17.5,328135,4689554,19,T
1580247411678899536,131,1580247411677994966,gps,42.339265,-71.086296,-18.4,328135,4689553,19,T
1580247412689110905,132,1580247412684380054,gps,42.3392555,-71.0863073333,-17.7,328134,4689552,19,T
1580247413682926972,133,1580247413678823947,gps,42.3392493333,-71.086316,-17.0,328133,4689551,19,T
1580247414687117810,134,1580247414683273077,gps,42.3392395,-71.0863288333,-18.0,328132,4689550,19,T
1580247415685096808,135,1580247415681206941,gps,42.3392335,-71.086346,-17.5,328130,4689550,19,T
1580247416681357318,136,1580247416677004098,gps,42.339223,-71.086363,-18.0,328129,4689548,19,T
1580247417684490764,137,1580247417680326938,gps,42.3392125,-71.0863736667,-17.9,328128,4689547,19,T
1580247418685598637,138,1580247418681832075,gps,42.3392018333,-71.0863845,-17.8,328127,4689546,19,T
1580247419700083137,139,1580247419696136951,gps,42.3391953333,-71.086395,-17.6,328126,4689545,19,T
1580247420684694316,140,1580247420680824995,gps,42.339186,-71.0864131667,-17.4,328125,4689544,19,T
1580247421687339182,141,1580247421683332920,gps,42.3391773333,-71.0864245,-17.6,328124,4689544,19,T
1580247422686746064,142,1580247422682544946,gps,42.3391673333,-71.0864353333,-17.9,328123,4689542,19,T
1580247423686775395,143,1580247423682849884,gps,42.3391588333,-71.0864475,-17.6,328122,4689542,19,T
1580247424682642829,144,1580247424678672075,gps,42.3391515,-71.0864643333,-16.7,328120,4689541,19,T
1580247425684302263,145,1580247425680562019,gps,42.3391425,-71.0864766667,-16.7,328119,4689540,19,T
1580247426688088310,146,1580247426683939933,gps,42.3391333333,-71.0864865,-16.9,328119,4689539,19,T
1580247427688434669,147,1580247427684509038,gps,42.3391238333,-71.0864958333,-17.2,328118,4689538,19,T
1580247428689029198,148,1580247428684909105,gps,42.339114,-71.0865048333,-17.2,328117,4689537,19,T
1580247429687634767,149,1580247429682476043,gps,42.3391075,-71.0865096667,-17.8,328117,4689536,19,T
1580247430688441560,150,1580247430684583902,gps,42.3390991667,-71.0865223333,-18.1,328116,4689535,19,T
1580247431685069049,151,1580247431681054115,gps,42.339092,-71.0865338333,-18.3,328115,4689534,19,T
1580247432688847735,152,1580247432684935092,gps,42.3390838333,-71.0865465,-18.6,328114,4689533,19,T
1580247433687722103,153,1580247433683922052,gps,42.3390755,-71.086558,-19.0,328113,4689532,19,T
1580247434685722281,154,1580247434681582927,gps,42.339067,-71.0865691667,-19.6,328112,4689532,19,T
1580247435682921474,155,1580247435678841114,gps,42.3390595,-71.0865806667,-20.1,328111,4689531,19,T
1580247436686100174,156,1580247436681773900,gps,42.3390525,-71.0865918333,-20.8,328110,4689530,19,T
1580247437688008329,157,1580247437683978080,gps,42.339043,-71.0866038333,-20.8,328109,4689529,19,T
1580247438687048752,158,1580247438683037996,gps,42.339036,-71.0866193333,-19.9,328107,4689528,19,T
1580247439689576716,159,1580247439685666084,gps,42.339028,-71.0866353333,-18.9,328106,4689527,19,T
1580247440689276064,160,1580247440685163021,gps,42.3390198333,-71.0866458333,-19.7,328105,4689526,19,T
1580247441688619121,161,1580247441684617042,gps,42.3390123333,-71.0866606667,-18.8,328104,4689526,19,T
1580247442685326630,162,1580247442681180953,gps,42.339003,-71.0866718333,-18.9,328103,4689525,19,T
1580247443689209012,163,1580247443684916019,gps,42.3389931667,-71.086682,-19.0,328102,4689524,19,T
1580247444680244012,164,1580247444678402900,gps,42.3389848333,-71.0866908333,-19.7,328101,4689523,19,T
1580247445694479283,165,1580247445689410924,gps,42.3389726667,-71.0866976667,-20.1,328101,4689521,19,T
1580247446688535373,166,1580247446684463024,gps,42.3389601667,-71.086707,-20.3,328100,4689520,19,T
1580247447689244269,167,1580247447685401916,gps,42.3389521667,-71.0867155,-21.0,328099,4689519,19,T
1580247448688038748,168,1580247448684079885,gps,42.3389411667,-71.086724,-21.5,328099,4689518,19,T
1580247449686174147,169,1580247449682198047,gps,42.3389316667,-71.0867351667,-22.0,328098,4689517,19,T
1580247450685082172,170,1580247450680888891,gps,42.3389213333,-71.0867468333,-22.3,328097,4689516,19,T
1580247451689401640,171,1580247451685508966,gps,42.33891,-71.0867581667,-22.8,328096,4689515,19,T
1580247452686175513,172,1580247452682056903,gps,42.3388985,-71.0867673333,-23.3,328095,4689513,19,T
1580247453679010854,173,1580247453676920890,gps,42.3388888333,-71.0867776667,-23.7,328094,4689512,19,T
1580247454686086625,174,1580247454681957006,gps,42.3388796667,-71.0867878333,-24.2,328093,4689511,19,T
1580247455686215034,175,1580247455682193994,gps,42.3388713333,-71.0867988333,-24.5,328092,4689510,19,T
1580247456687049511,176,1580247456682835102,gps,42.3388615,-71.0868096667,-25.1,328091,4689509,19,T
1580247457685069565,177,1580247457680854082,gps,42.3388521667,-71.0868196667,-25.8,328090,4689508,19,T
1580247458687106353,178,1580247458683092117,gps,42.338843,-71.0868276667,-26.4,328090,4689507,19,T
1580247459685896508,179,1580247459682096958,gps,42.3388336667,-71.0868356667,-27.0,328089,4689506,19,T
1580247460693573932,180,1580247460689565896,gps,42.3388258333,-71.0868468333,-26.7,328088,4689505,19,T
1580247461693163003,181,1580247461688905000,gps,42.3388168333,-71.0868601667,-26.3,328087,4689504,19,T
1580247462690416869,182,1580247462686332941,gps,42.3388066667,-71.0868721667,-26.4,328086,4689503,19,T
1580247463688360344,183,1580247463684334993,gps,42.3387975,-71.0868823333,-26.6,328085,4689502,19,T
1580247464687246877,184,1580247464683229923,gps,42.3387885,-71.0868935,-26.8,328084,4689501,19,T
1580247465689568254,185,1580247465685475111,gps,42.33878,-71.0869065,-26.6,328083,4689500,19,T
1580247466690222111,186,1580247466685982942,gps,42.3387723333,-71.0869228333,-25.6,328082,4689500,19,T
1580247467689980695,187,1580247467685951948,gps,42.3387636667,-71.0869323333,-26.2,328081,4689499,19,T
1580247468690998807,188,1580247468687000989,gps,42.3387548333,-71.0869466667,-25.6,328080,4689498,19,T
1580247469694017274,189,1580247469689637899,gps,42.338748,-71.0869596667,-25.2,328079,4689497,19,T
1580247470691524746,190,1580247470687536954,gps,42.3387385,-71.0869726667,-24.8,328077,4689496,19,T
1580247471688377569,191,1580247471683779001,gps,42.3387275,-71.0869818333,-24.6,328077,4689495,19,T
1580247472690109679,192,1580247472685440063,gps,42.3387156667,-71.086991,-24.7,328076,4689493,19,T
1580247473688987142,193,1580247473684978961,gps,42.3387036667,-71.087,-25.1,328075,4689492,19,T
1580247474684476987,194,1580247474680478096,gps,42.3386913333,-71.0870083333,-25.2,328074,4689491,19,T
1580247475682870050,195,1580247475678575992,gps,42.338678,-71.0870155,-25.1,328074,4689489,19,T
1580247476685409884,196,1580247476680660009,gps,42.3386646667,-71.0870236667,-24.9,328073,4689488,19,T
1580247477686866394,197,1580247477682209968,gps,42.3386515,-71.0870303333,-25.0,328072,4689486,19,T
1580247478688517087,198,1580247478684665918,gps,42.3386396667,-71.0870376667,-25.4,328072,4689485,19,T
1580247479699541609,199,1580247479695569038,gps,42.338629,-71.0870451667,-25.5,328071,4689484,19,T
1580247480690360976,200,1580247480686408042,gps,42.3386183333,-71.0870513333,-25.6,328071,4689483,19,T
1580247481692176563,201,1580247481688108921,gps,42.3386083333,-71.0870603333,-25.5,328070,4689482,19,T
1580247482688283163,202,1580247482684113025,gps,42.3385986667,-71.0870708333,-25.7,328069,4689481,19,T
1580247483693094298,203,1580247483688704967,gps,42.3385898333,-71.0870851667,-25.2,328068,4689480,19,T
1580247484687655186,204,1580247484683099985,gps,42.3385803333,-71.087096,-25.3,328067,4689479,19,T
1580247485694613297,205,1580247485689073085,gps,42.3385701667,-71.0871055,-25.8,328066,4689477,19,T
1580247486691426175,206,1580247486687346935,gps,42.3385608333,-71.0871168333,-25.7,328065,4689476,19,T
1580247487692181393,207,1580247487687716007,gps,42.3385515,-71.087129,-25.8,328064,4689475,19,T
1580247488691839412,208,1580247488687050104,gps,42.3385426667,-71.087141,-26.2,328063,4689475,19,T
1580247489687701187,209,1580247489682151079,gps,42.3385343333,-71.0871533333,-26.5,328062,4689474,19,T
1580247490686476554,210,1580247490682225942,gps,42.3385253333,-71.0871633333,-26.8,328061,4689473,19,T
1580247491685792060,211,1580247491682008028,gps,42.3385148333,-71.087175,-26.6,328060,4689471,19,T
1580247492687399382,212,1580247492683495044,gps,42.3385051667,-71.087186,-26.7,328059,4689470,19,T
1580247493682040984,213,1580247493677777051,gps,42.3384958333,-71.0871945,-27.5,328059,4689469,19,T
1580247494685401934,214,1580247494681348085,gps,42.3384855,-71.0872081667,-27.3,328057,4689468,19,T
1580247495688094912,215,1580247495684214115,gps,42.338475,-71.087222,-27.1,328056,4689467,19,T
1580247496688501512,216,1580247496684397935,gps,42.3384651667,-71.0872338333,-27.5,328055,4689466,19,T
1580247497686334375,217,1580247497682501077,gps,42.338455,-71.0872413333,-28.7,328055,4689465,19,T
1580247498689673165,218,1580247498685376882,gps,42.3384445,-71.087253,-28.7,328054,4689464,19,T
1580247499687054445,219,1580247499683217048,gps,42.3384353333,-71.0872658333,-28.7,328052,4689463,19,T
1580247500689564921,220,1580247500685379981,gps,42.3384243333,-71.087277,-28.9,328052,4689462,19,T
1580247501689309396,221,1580247501685259103,gps,42.338413,-71.0872883333,-28.9,328051,4689460,19,T
1580247502689168782,222,1580247502685043096,gps,42.3384015,-71.0872983333,-29.0,328050,4689459,19,T
1580247503688733149,223,1580247503684670925,gps,42.338389,-71.0873018333,-29.9,328049,4689458,19,T
1580247504686232704,224,1580247504682159900,gps,42.3383816667,-71.0873116667,-30.7,328049,4689457,19,T
1580247505688619815,225,1580247505684724092,gps,42.3383758333,-71.0873271667,-31.1,328047,4689456,19,T
1580247506688507740,226,1580247506684475898,gps,42.3383686667,-71.0873413333,-30.9,328046,4689456,19,T
1580247507696365970,227,1580247507690464019,gps,42.3383621667,-71.0873541667,-31.1,328045,4689455,19,T
1580247508688992582,228,1580247508684915065,gps,42.3383543333,-71.0873648333,-31.5,328044,4689454,19,T
1580247509687631845,229,1580247509683856010,gps,42.3383478333,-71.0873785,-31.1,328043,4689453,19,T
1580247510687412630,230,1580247510683207035,gps,42.3383413333,-71.0873925,-31.2,328042,4689453,19,T
1580247511684304628,231,1580247511680243015,gps,42.3383318333,-71.0874078333,-30.6,328041,4689452,19,T
1580247512689251495,232,1580247512685060024,gps,42.3383233333,-71.0874213333,-30.5,328039,4689451,19,T
1580247513689933011,233,1580247513686078071,gps,42.3383161667,-71.0874351667,-30.6,328038,4689450,19,T
1580247514690524614,234,1580247514686400890,gps,42.3383116667,-71.0874571667,-28.5,328036,4689449,19,T
1580247515689975572,235,1580247515685889959,gps,42.3383023333,-71.0874751667,-27.2,328035,4689448,19,T
1580247516689636250,236,1580247516685511112,gps,42.3382946667,-71.0874871667,-26.6,328034,4689448,19,T
1580247517697328540,237,1580247517691780090,gps,42.3382968333,-71.0875053333,-26.7,328032,4689448,19,T
1580247518685049178,238,1580247518684087038,gps,42.338289,-71.087515,-26.2,328032,4689447,19,T
1580247519689912413,239,1580247519685884952,gps,42.3382776667,-71.0875275,-26.0,328031,4689446,19,T
1580247520690547925,240,1580247520686496973,gps,42.3382726667,-71.087543,-25.4,328029,4689445,19,T
1580247521707723608,241,1580247521690681934,gps,42.3382658333,-71.0875601667,-24.6,328028,4689445,19,T
1580247522687153387,242,1580247522682508945,gps,42.3382566667,-71.0875735,-23.8,328027,4689444,19,T
1580247523689380907,243,1580247523685472965,gps,42.3382485,-71.0875853333,-23.8,328026,4689443,19,T
1580247524690692164,244,1580247524686503887,gps,42.3382386667,-71.0876003333,-22.5,328024,4689442,19,T
1580247525681532215,245,1580247525680341005,gps,42.3382315,-71.0876191667,-20.9,328023,4689441,19,T
1580247526691795724,246,1580247526686650037,gps,42.3382225,-71.0876331667,-20.8,328022,4689440,19,T
1580247527689068168,247,1580247527684756994,gps,42.3382173333,-71.0876541667,-20.4,328020,4689439,19,T
1580247528690927552,248,1580247528686579942,gps,42.3382093333,-71.0876708333,-20.5,328019,4689439,19,T
1580247529685537449,249,1580247529682879924,gps,42.3381993333,-71.087685,-20.8,328017,4689437,19,T
1580247530688906822,250,1580247530684850931,gps,42.338198,-71.08771,-20.7,328015,4689437,19,T
1580247531688974975,251,1580247531684883117,gps,42.3381886667,-71.0877258333,-20.3,328014,4689436,19,T
1580247532689647988,252,1580247532685523033,gps,42.3381801667,-71.087741,-20.4,328013,4689435,19,T
1580247533685345365,253,1580247533681464910,gps,42.3381685,-71.0877511667,-20.6,328012,4689434,19,T
1580247534687600497,254,1580247534683562994,gps,42.338159,-71.0877638333,-20.6,328011,4689433,19,T
1580247535678600822,255,1580247535677192926,gps,42.3381478333,-71.0877705,-20.8,328010,4689432,19,T
1580247536690370132,256,1580247536686197996,gps,42.3381326667,-71.0877753333,-20.7,328010,4689430,19,T
1580247537690749849,257,1580247537686697959,gps,42.3381183333,-71.0877885,-20.4,328009,4689429,19,T
1580247538692400264,258,1580247538688618898,gps,42.3381036667,-71.087796,-20.0,328008,4689427,19,T
1580247539703366829,259,1580247539699281930,gps,42.3380938333,-71.087807,-19.8,328007,4689426,19,T
1580247540687746518,260,1580247540683830022,gps,42.3380853333,-71.0878206667,-19.3,328006,4689425,19,T
1580247541691226152,261,1580247541687094926,gps,42.3380818333,-71.0878416667,-18.2,328004,4689425,19,T
1580247542692512601,262,1580247542688360929,gps,42.3380735,-71.0878538333,-18.0,328003,4689424,19,T
1580247543691193823,263,1580247543687011957,gps,42.3380656667,-71.0878678333,-17.8,328002,4689423,19,T
1580247544689444454,264,1580247544685477972,gps,42.3380566667,-71.0878783333,-18.0,328001,4689422,19,T
1580247545690425942,265,1580247545686537027,gps,42.3380471667,-71.087889,-17.5,328000,4689421,19,T
1580247546695161400,266,1580247546691231966,gps,42.3380368333,-71.0879001667,-17.7,327999,4689420,19,T
1580247547691228160,267,1580247547687228918,gps,42.3380296667,-71.0879158333,-17.9,327998,4689419,19,T
1580247548686363253,268,1580247548685437917,gps,42.3380193333,-71.0879286667,-18.2,327997,4689418,19,T
1580247549689338238,269,1580247549685158014,gps,42.3380093333,-71.0879411667,-18.5,327996,4689417,19,T
1580247550689628456,270,1580247550685874938,gps,42.337998,-71.0879536667,-18.4,327995,4689416,19,T
1580247551687558167,271,1580247551683677911,gps,42.337989,-71.0879661667,-18.7,327994,4689415,19,T
1580247552691586214,272,1580247552687416076,gps,42.3379778333,-71.0879781667,-19.0,327993,4689413,19,T
1580247553690881211,273,1580247553686906099,gps,42.337966,-71.08799,-19.7,327992,4689412,19,T
1580247554691365778,274,1580247554687232971,gps,42.3379565,-71.0880046667,-19.0,327990,4689411,19,T
1580247555693195387,275,1580247555688994884,gps,42.3379468333,-71.0880181667,-18.8,327989,4689410,19,T
1580247556693967822,276,1580247556690062046,gps,42.3379408333,-71.0880355,-18.9,327988,4689409,19,T
1580247557686396617,277,1580247557682651042,gps,42.337933,-71.088051,-19.0,327986,4689409,19,T
1580247558693827219,278,1580247558689924001,gps,42.3379246667,-71.0880646667,-18.8,327985,4689408,19,T
1580247559692831453,279,1580247559688616037,gps,42.3379165,-71.088079,-18.5,327984,4689407,19,T
1580247560690301389,280,1580247560686310052,gps,42.3379138333,-71.0880968333,-18.3,327983,4689407,19,T
1580247561690742403,281,1580247561686844110,gps,42.3379076667,-71.0881108333,-18.1,327981,4689406,19,T
1580247562689836024,282,1580247562685460090,gps,42.337904,-71.0881196667,-18.3,327981,4689406,19,T
